City,Lat,Lng,Max Temp,Humidity,Cloudiness,Wind Speed,Country,Date
busselton,-33.65,115.3333,61.66,53,1,12.06,AU,1632189986
chuy,-33.6971,-53.4616,54.43,88,84,16.78,UY,1632189986
qrendi,35.8347,14.4583,76.66,88,0,9.22,MT,1632189987
kruisfontein,-34.0033,24.7314,53.02,74,83,15.73,ZA,1632189938
makakilo city,21.3524,-158.0865,83.55,49,1,9.22,US,1632189987
bose,45.4612,8.0137,54.99,75,28,4.0,IT,1632189988
sinjai,-5.1241,120.253,77.94,78,100,3.53,ID,1632189988
new norfolk,6.6518,-10.5932,73.06,98,100,0.6,LR,1632189989
auki,-8.7676,160.7034,86.32,62,35,4.16,SB,1632189989
rikitea,-23.1203,-134.9692,74.07,75,12,11.34,PF,1632189989
rincon,32.296,-81.2354,77.18,100,90,4.61,US,1632189990
aswan,24.0934,32.907,86.29,17,10,9.15,EG,1632189990
jamestown,42.097,-79.2353,71.19,88,90,10.36,US,1632189991
bengkulu,-3.8004,102.2655,81.03,75,83,1.59,ID,1632189860
verkhnevilyuysk,63.4453,120.3167,43.39,52,94,9.33,RU,1632189445
dingle,10.9995,122.6711,82.63,79,100,3.85,PH,1632189992
moerai,-22.4333,-151.3333,75.06,78,1,11.63,PF,1632189992
kamarion,36.8,25.8167,72.82,86,0,10.27,GR,1632189992
tongchuan,35.0806,109.0897,76.53,33,0,4.16,CN,1632189993
lebu,-37.6167,-73.65,49.28,89,2,18.48,CL,1632189993
yellowknife,62.456,-114.3525,43.59,72,99,5.57,CA,1632189889
kiama,-34.6833,150.8667,58.48,56,26,24.32,AU,1632189994
ribeira grande,42.7461,-8.4439,61.2,88,20,8.05,ES,1632189994
victoria,22.2855,114.1577,87.85,72,69,0.81,HK,1632189995
honghu,29.8206,113.4621,80.85,67,0,11.54,CN,1632189995
qaanaaq,77.484,-69.3632,12.67,71,42,9.57,GL,1632189996
sungaipenuh,-2.0833,101.3833,73.65,77,92,1.77,ID,1632189996
bethel,41.3712,-73.414,66.56,88,1,0.0,US,1632189997
port hedland,-7.0349,29.7638,75.81,44,46,4.72,CD,1632189997
chernyshevskiy,63.0128,112.4714,42.19,66,95,12.55,RU,1632189998
mataura,-46.1927,168.8643,46.78,97,100,8.39,NZ,1632189813
marsh harbour,53.6512,-1.8078,52.61,94,17,5.32,GB,1632189998
rio gallegos,38.3,21.7833,69.71,78,12,3.98,GR,1632189999
kloulklubed,7.0419,134.2556,84.7,73,100,5.68,PW,1632189999
ushuaia,-54.8,-68.3,40.96,96,100,7.18,AR,1632189790
mahebourg,-20.4081,57.7,68.68,64,27,13.85,MU,1632189794
hami,42.8,93.45,75.16,27,92,3.24,CN,1632190000
nelson bay,-41.2833,173.2833,56.97,66,96,3.76,NZ,1632190000
hasaki,35.7333,140.8333,77.29,62,99,7.76,JP,1632189854
pundaguitan,6.3711,126.1689,81.54,75,92,3.6,PH,1632190001
mount gambier,53.6597,-1.8537,51.51,95,17,5.19,GB,1632190001
ponta do sol,38.7333,-28.2667,65.28,78,2,14.16,PT,1632190002
pacific grove,38.482,-90.7415,80.78,73,4,12.01,US,1632190002
san vicente,13.3034,-4.8956,83.75,56,83,5.17,ML,1632190003
soe,-9.8607,124.284,81.52,36,71,13.85,ID,1632190003
tuktoyaktuk,69.4541,-133.0374,35.87,81,100,13.47,CA,1632189808
arraial do cabo,-22.8362,-46.646,78.21,41,48,3.94,BR,1632190004
lavrentiya,65.5833,-171.0,36.93,57,61,4.14,RU,1632189810
saint-francois,46.4154,3.9054,54.84,94,75,0.0,FR,1632190004
punta arenas,8.9897,125.34,86.36,64,60,4.25,PH,1632190005
zalantun,48.0,122.7167,53.8,70,100,11.1,CN,1632190005
thompson,55.7435,-97.8558,44.08,81,100,6.44,CA,1632189872
longyearbyen,78.2186,15.6401,40.84,93,90,0.0,SJ,1632189979
sao filipe,20.5113,76.2129,72.52,91,100,5.46,IN,1632190006
batagay-alyta,67.8006,130.4114,37.06,66,100,3.89,RU,1632190006
esperance,-33.8667,121.9,59.63,49,0,12.1,AU,1632190007
hithadhoo,-0.6,73.0833,83.26,73,100,12.26,MV,1632189806
puerto ayora,36.5939,-6.233,69.94,88,0,4.61,ES,1632189916
bloemhof,-27.6469,25.607,48.04,31,0,7.81,ZA,1632190008
port macquarie,-7.0349,29.7638,75.81,44,46,4.72,CD,1632189997
taoudenni,22.6783,-3.9836,94.53,9,0,9.75,ML,1632189940
plettenberg bay,51.2167,7.8833,48.22,85,7,2.64,DE,1632190008
aklavik,68.2191,-135.0107,37.49,77,100,14.38,CA,1632190009
bowen,-20.0167,148.2333,84.24,44,49,4.07,AU,1632190009
vila,42.0304,-8.1588,50.88,93,1,5.19,PT,1632190010
nikolskoye,59.7035,30.7861,42.69,83,99,6.58,RU,1632190010
hobart,-42.8794,147.3294,49.86,50,75,13.8,AU,1632189787
nouadhibou,20.931,-17.0347,72.41,78,6,20.22,MR,1632190011
ambon,-3.6954,128.1814,82.54,83,75,6.91,ID,1632190011
alofi,-19.0595,-169.9187,73.29,94,90,9.22,NU,1632189899
hermanus,-34.4187,19.2345,51.46,67,67,7.05,ZA,1632190012
noumea,-22.2763,166.4572,82.38,52,7,3.02,NC,1632190012
butaritari,3.0707,172.7902,83.16,70,45,14.14,KI,1632189820
barrow,71.2906,-156.7887,32.02,74,90,13.8,US,1632190013
port elizabeth,-7.0349,29.7638,75.81,44,46,4.72,CD,1632190013
tecoanapa,16.5167,-98.75,80.56,79,98,5.66,MX,1632190013
marang,5.2056,103.2059,81.84,76,100,2.57,MY,1632189797
kharan,28.5833,65.4167,75.92,16,0,3.98,PK,1632190014
padang,-0.9492,100.3543,80.65,78,43,3.09,ID,1632190015
east london,65.0,-15.0,42.58,78,100,11.18,IS,1632190015
provideniya,64.3833,-173.3,33.91,75,90,4.47,RU,1632189869
lamu,-2.2717,40.902,77.22,82,13,14.85,KE,1632190016
saldanha,-33.0117,17.9442,52.86,70,100,13.98,ZA,1632189906
linjiang,41.8069,126.9078,66.45,81,100,3.31,CN,1632190016
honningsvag,70.9821,25.9704,41.74,71,26,32.75,NO,1632190017
albany,42.6001,-73.9662,62.47,88,97,5.68,US,1632189839
bredasdorp,-34.5322,20.0403,45.48,74,15,4.34,ZA,1632189801
cape town,-36.413,-71.9028,53.02,76,0,5.88,CL,1632190017
nome,64.5011,-165.4064,38.7,50,97,15.97,US,1632189338
kotelnich,58.3089,48.348,32.11,90,100,5.73,RU,1632190018
ahipara,-35.1667,173.1667,61.99,65,54,8.81,NZ,1632189924
yulara,-25.2406,130.9889,58.84,33,6,17.27,AU,1632189443
klaksvik,62.2266,-6.589,52.72,79,100,33.22,FO,1632190019
norman wells,35.2226,-97.4395,86.41,39,1,3.44,US,1632189966
polczyn-zdroj,53.7642,16.0957,46.76,76,90,1.19,PL,1632190020
dikson,73.5069,80.5464,34.95,78,98,11.54,RU,1632189859
castro,-24.7911,-50.0119,70.16,53,12,2.39,BR,1632189805
georgetown,5.4112,100.3354,82.33,89,20,4.61,MY,1632189835
qaqortoq,60.7167,-46.0333,36.1,64,0,6.35,GL,1632190021
sherbakul,54.6316,72.3963,38.88,87,99,11.34,RU,1632190021
sitka,57.0531,-135.33,55.29,88,90,12.66,US,1632190022
asau,46.4333,26.4,45.52,91,96,0.6,RO,1632189787
dwarka,22.2394,68.9678,81.84,84,74,17.09,IN,1632189976
bosaso,11.2842,49.1816,88.32,56,4,5.91,SO,1632189779
maracacume,-2.0428,-45.9592,72.01,94,43,3.67,BR,1632190023
kirksville,40.1948,-92.5833,69.75,100,90,8.05,US,1632190023
cockburn town,-32.0833,141.0,56.34,33,9,20.8,AU,1632190024
buala,-8.145,159.5921,84.92,69,26,8.79,SB,1632189858
jardim,-21.4803,-56.1381,80.96,21,0,1.25,BR,1632190025
ngozi,-2.9075,29.8306,57.33,80,8,2.17,BI,1632190025
sorland,67.667,12.6934,48.25,70,100,27.45,NO,1632190025
ternate,0.8,127.4,78.75,83,99,4.18,ID,1632190026
petropavlovsk-kamchatskiy,53.0452,158.6483,55.99,44,75,20.13,RU,1632190026
mar del plata,43.4002,-4.0094,57.07,94,75,8.05,ES,1632190027
tevaitoa,-16.7833,-151.5,79.2,70,2,13.27,PF,1632190027
kingston,17.997,-76.7936,75.76,93,86,2.84,JM,1632190027
half moon bay,6.3807,-10.6953,75.9,92,100,2.59,LR,1632190028
pevek,69.7008,170.3133,28.67,75,95,2.48,RU,1632189862
vao,-22.6667,167.4833,70.68,65,57,15.57,NC,1632190028
quelimane,-17.8786,36.8883,63.43,78,0,4.81,MZ,1632190029
tessaoua,13.7574,7.9874,84.83,36,99,6.78,NE,1632190029
awbari,26.5921,12.7805,79.56,20,0,7.43,LY,1632190030
shubarkuduk,49.1447,56.4872,49.77,33,100,11.72,KZ,1632190030
saint-augustin,51.226,-58.6502,49.46,64,21,10.33,CA,1632190030
dunda,-8.1167,34.25,62.44,75,0,1.88,TZ,1632190031
avarua,-21.2078,-159.775,78.85,78,40,4.61,CK,1632190031
airai,-8.9266,125.4092,75.78,31,53,5.73,TL,1632189808
ancud,-41.8697,-73.8203,44.13,86,0,6.62,CL,1632190032
coquimbo,-29.9533,-71.3436,53.33,87,0,5.75,CL,1632189837
naberera,-4.2,36.9333,59.23,83,94,7.83,TZ,1632190033
avera,33.194,-82.5271,74.71,98,100,10.33,US,1632190033
bluff,-46.6,168.3333,47.46,87,100,15.64,NZ,1632189969
kalmunai,7.4167,81.8167,80.74,78,90,7.81,LK,1632190034
vaini,-21.2,-175.2,73.56,88,75,9.22,TO,1632189851
waipawa,-41.4122,175.5153,56.03,60,90,19.57,NZ,1632189832
pantai remis,-3.1679,116.0574,76.71,95,100,2.66,ID,1632190035
vredendal,-31.6683,18.5012,50.02,55,47,6.17,ZA,1632190035
kapaa,22.0752,-159.319,84.18,74,75,12.66,US,1632189809
san patricio,13.3034,-4.8956,83.75,56,83,5.17,ML,1632190003
salalah,17.0151,54.0924,78.89,89,75,4.61,OM,1632189988
cabo san lucas,-8.2833,-35.0333,76.93,80,58,4.18,BR,1632190037
luanda,-8.8368,13.2343,73.4,83,75,9.22,AO,1632189447
tura,25.5198,90.2201,75.79,88,96,3.91,IN,1632190037
yingkou,40.6648,122.2283,63.66,80,100,21.83,CN,1632190038
cherskiy,68.75,161.3,34.75,50,65,7.4,RU,1632190038
port alfred,-7.0349,29.7638,75.81,44,46,4.72,CD,1632189997
paamiut,61.994,-49.6678,34.38,64,5,20.62,GL,1632190039
chokurdakh,70.6333,147.9167,33.69,53,96,10.0,RU,1632189848
talnakh,69.4865,88.3972,34.21,75,100,2.26,RU,1632189452
upernavik,72.7868,-56.1549,24.49,82,84,4.41,GL,1632189827
grindavik,63.8424,-22.4338,43.27,93,75,6.91,IS,1632190040
lieksa,63.3167,30.0167,34.54,88,100,7.92,FI,1632190041
south river,64.0,-19.0,38.48,86,100,4.16,IS,1632190041
doha,25.2867,51.5333,87.78,50,0,5.75,QA,1632189904
hilo,19.7297,-155.09,80.33,69,75,9.22,US,1632189960
mitchell,43.7094,-98.0298,55.38,82,1,5.75,US,1632190042
dunedin,-45.8742,170.5036,52.09,80,100,4.74,NZ,1632190042
wau,7.7029,27.9953,69.94,97,100,4.23,SS,1632190043
narsaq,60.9167,-46.05,35.82,57,0,5.37,GL,1632190043
payo,-3.7508,103.6372,75.58,93,97,0.2,ID,1632190044
puerto baquerizo moreno,36.5939,-6.233,69.94,88,0,4.61,ES,1632189916
fakel,57.6325,53.0252,34.3,84,74,3.8,RU,1632190045
kodiak,57.79,-152.4072,51.69,65,12,16.49,US,1632189956
carnarvon,-24.8667,113.6333,79.12,32,0,18.7,AU,1632189800
ulyanovka,59.6394,30.7647,42.58,82,99,6.69,RU,1632190045
cidreira,-30.1811,-50.2056,67.95,97,61,7.34,BR,1632189948
saskylakh,71.9167,114.0833,34.12,87,99,5.77,RU,1632190046
tiksi,71.6872,128.8694,36.63,71,100,9.69,RU,1632190047
kavieng,-2.5744,150.7967,84.24,67,100,3.2,PG,1632190047
khash,28.2211,61.2158,69.6,17,0,2.35,IR,1632190047
menongue,-14.6585,17.691,69.58,39,85,2.01,AO,1632190048
yining,29.0361,114.5636,82.13,51,0,2.28,CN,1632190048
shenjiamen,29.9576,122.298,76.86,76,39,3.44,CN,1632189936
vanavara,60.34,102.2797,39.22,79,100,10.56,RU,1632190049
kimbe,-5.5502,150.1429,87.96,63,88,3.06,PG,1632190049
udachnyy,66.4167,112.4,39.25,54,100,14.52,RU,1632190035
danshui,22.7984,114.4672,88.3,65,20,0.96,CN,1632190050
inirida,3.8653,-67.9239,73.49,98,100,2.42,CO,1632190050
atuona,-9.8,-139.0333,77.88,72,0,20.15,PF,1632189955
tasiilaq,65.6145,-37.6368,37.56,76,96,8.79,GL,1632189970
lac du bonnet,41.6356,19.7131,62.71,74,100,4.34,AL,1632190051
shelburne,44.0787,-80.2041,61.66,71,98,7.38,CA,1632189816
prainha,-1.8,-53.48,79.72,60,81,2.77,BR,1632190052
pangai,-19.8,-174.35,78.91,61,20,8.05,TO,1632190052
coihaique,-45.5752,-72.0662,40.95,81,0,3.44,CL,1632190053
ngama,11.7833,17.1667,77.23,72,100,5.44,TD,1632190053
fortuna,40.5982,-124.1573,64.74,63,20,8.05,US,1632190053
codrington,-38.2667,141.9667,51.91,67,97,14.92,AU,1632189838
redmond,47.674,-122.1215,66.16,69,9,4.94,US,1632189795
brokopondo,4.75,-55.1667,78.82,82,100,9.19,SR,1632190054
tezu,27.9167,96.1667,81.66,70,61,1.99,IN,1632190055
shiyan,32.6475,110.7781,77.81,60,0,6.62,CN,1632190055
san buenaventura,13.3034,-4.8956,83.75,56,83,5.17,ML,1632190003
khatanga,71.9667,102.5,32.76,98,100,3.2,RU,1632189800
bambous virieux,-20.2567,57.4061,66.58,66,58,13.22,MU,1632190056
nantucket,41.2835,-70.0995,60.85,77,1,5.75,US,1632190031
baykit,61.67,96.37,39.92,82,95,6.33,RU,1632190056
seymchan,62.8833,152.4333,32.04,85,100,10.74,RU,1632190057
brae,60.3964,-1.353,55.31,79,100,21.59,GB,1632190057
banjar,-8.19,114.9675,82.26,79,98,0.69,ID,1632190058
nadym,65.5333,72.5167,36.03,98,100,12.84,RU,1632190058
darnah,32.767,22.6367,79.57,47,0,4.81,LY,1632190059
hun,29.1268,15.9477,82.22,23,0,10.87,LY,1632190059
ostrovnoy,68.0531,39.5131,34.68,87,86,11.01,RU,1632190059
alta floresta,69.9689,23.2717,40.26,60,75,13.8,NO,1632190060
severo-kurilsk,50.6789,156.125,50.63,75,11,29.59,RU,1632190060
gore,-46.1028,168.9436,48.6,93,100,10.71,NZ,1632190061
port lincoln,-7.0349,29.7638,75.81,44,46,4.72,CD,1632190061
tooele,40.5308,-112.2983,57.02,62,1,3.44,US,1632190062
caravelas,-17.7125,-39.2481,71.71,85,3,4.45,BR,1632189879
westport,41.1415,-73.3579,69.55,68,1,8.05,US,1632190062
adrar,20.5022,-10.0711,87.93,25,0,17.94,MR,1632189982
port hardy,-7.0349,29.7638,75.81,44,46,4.72,CD,1632189997
hambantota,6.1241,81.1185,77.34,100,40,5.75,LK,1632190063
hofn,64.2539,-15.2082,48.43,61,100,9.1,IS,1632189818
kahului,20.8947,-156.47,87.82,45,40,24.16,US,1632189838
micheweni,-4.9667,39.8333,74.28,85,0,9.4,TZ,1632190064
mys shmidta,62.0589,48.6201,30.04,97,8,3.24,RU,1632190064
chipinge,-20.1883,32.6236,60.69,34,0,2.82,ZW,1632190064
geraldton,-28.7667,114.6,75.61,27,0,21.85,AU,1632190065
olga,43.7444,135.2892,57.97,94,100,4.5,RU,1632190065
comodoro rivadavia,-13.6631,-59.7858,77.25,33,25,4.81,BR,1632190066
shubarshi,48.5872,57.1869,49.06,32,100,8.61,KZ,1632190066
kaitangata,-46.2817,169.8464,54.37,70,100,2.19,NZ,1632190067
shemgang,27.2169,90.6579,67.17,66,0,1.92,BT,1632190067
muyezerskiy,63.9333,31.65,34.07,83,100,3.0,RU,1632190068
zeya,53.75,127.2667,61.83,66,0,1.92,RU,1632190015
sur,22.5667,59.5289,83.75,68,3,6.42,OM,1632190068
labuhan,-6.8844,112.2051,84.0,66,96,4.14,ID,1632190069
faanui,-16.4833,-151.75,79.02,70,5,11.48,PF,1632190070
gambela,8.25,34.5833,68.56,98,81,2.71,ET,1632190070
berlevag,70.8578,29.0864,39.92,73,56,27.51,NO,1632190070
piacabucu,-10.4056,-36.4344,72.84,80,85,5.7,BR,1632190071
charters towers,38.5736,-83.4333,71.98,90,100,3.94,US,1632190071
huarmey,-10.0681,-78.1522,62.29,84,18,9.62,PE,1632190072
port blair,-7.0349,29.7638,75.81,44,46,4.72,CD,1632189997
choma,-16.8065,26.9531,63.07,37,0,4.27,ZM,1632190072
necochea,-38.5473,-58.7368,46.65,79,0,10.4,AR,1632189791
lakes entrance,61.6071,-149.3086,48.06,73,90,11.5,US,1632190073
novouzensk,50.4592,48.1431,54.52,51,99,17.6,RU,1632190073
goderich,43.7501,-81.7165,69.13,87,100,17.07,CA,1632189858
poum,-20.2333,164.0167,72.72,64,8,17.69,NC,1632190074
rio grande,38.3,21.7833,69.71,78,12,3.98,GR,1632190074
manta,-0.95,-80.7333,72.05,86,84,13.35,EC,1632189823
chippewa falls,46.3,-84.4834,69.8,100,20,14.97,US,1632189896
biak,-0.9131,122.8766,75.09,93,100,6.98,ID,1632190075
saint-philippe,-21.3585,55.7679,67.59,72,100,13.31,RE,1632189857
chunskiy,56.0815,99.6342,42.37,78,100,6.15,RU,1632190076
tucurui,-3.7661,-49.6725,78.84,67,100,6.51,BR,1632190076
valparaiso,-33.0393,-71.6273,55.04,66,0,4.61,CL,1632190077
laurel,39.0993,-76.8483,71.04,70,1,3.44,US,1632190077
college,64.8569,-147.8028,39.15,48,75,9.22,US,1632190077
saryg-sep,51.5,95.6,44.6,45,93,1.36,RU,1632190078
palimbang,6.2106,124.1894,84.61,67,86,4.88,PH,1632190078
west wendover,31.8024,-97.0917,90.34,45,1,5.75,US,1632190079
kaeo,-35.1,173.7833,62.33,63,38,8.5,NZ,1632189963
mahibadhoo,3.7833,72.9667,83.26,72,15,10.38,MV,1632190079
vila franca do campo,42.0304,-8.1588,50.88,93,1,5.19,PT,1632190080
blagoyevo,63.3667,47.9167,31.19,94,14,1.12,RU,1632190080
mporokoso,-9.3727,30.125,63.23,41,0,5.66,ZM,1632190080
nouakchott,18.0858,-15.9785,87.73,63,2,20.83,MR,1632189919
krasnoselkup,65.7,82.4667,30.06,81,76,15.3,RU,1632189811
riverton,40.5219,-111.9391,59.23,50,1,4.61,US,1632190081
grand gaube,38.8755,-109.5012,63.59,18,0,4.9,US,1632190082
uromi,6.7,6.3333,70.39,98,100,3.98,NG,1632190082
horki,54.2861,30.9842,42.13,97,100,10.13,BY,1632190083
yalta,44.5,34.1667,62.19,84,100,5.99,UA,1632190083
gimli,50.6336,-96.9907,54.25,60,100,14.74,CA,1632190084
farafangana,-22.8167,47.8333,67.28,86,79,6.8,MG,1632190084
kolondieba,11.0882,-6.8926,75.18,79,0,3.22,ML,1632190085
sabaudia,41.3003,13.0282,67.35,71,1,5.75,IT,1632190085
nanortalik,60.1432,-45.2371,37.24,73,2,14.03,GL,1632190086
sola,-13.8833,167.55,78.06,74,100,18.48,VU,1632190086
manga,11.6636,-1.0731,76.46,72,38,6.15,BF,1632190087
iqaluit,63.7506,-68.5145,29.71,90,100,13.67,CA,1632189839
peniche,39.3558,-9.3811,69.28,71,0,14.99,PT,1632190087
xichang,27.8964,102.2634,68.7,74,8,2.39,CN,1632190088
istok,42.7808,20.4875,54.52,81,100,3.44,XK,1632190088
sao joao da barra,20.5113,76.2129,72.52,91,100,5.46,IN,1632190089
lethem,3.3803,-59.7968,76.26,83,100,5.55,GY,1632190090
san luis,13.3034,-4.8956,83.75,56,83,5.17,ML,1632190090
liaozhong,41.5061,122.7242,68.49,89,100,20.62,CN,1632190091
tankhoy,51.5528,105.1306,41.99,98,100,10.42,RU,1632190091
mecca,21.4267,39.8261,91.38,14,9,7.16,SA,1632190092
ray,23.6833,85.05,77.77,89,93,2.82,IN,1632190092
cayenne,4.9333,-52.3333,77.04,94,0,0.0,GF,1632189900
buluang,13.3068,123.3425,86.9,66,73,1.48,PH,1632190093
kabompo,-13.5927,24.2008,60.31,30,2,4.97,ZM,1632190094
mokhsogollokh,61.4681,128.9203,44.46,55,7,4.72,RU,1632190094
simoes,-7.5989,-40.8178,80.44,40,98,5.95,BR,1632190094
katsuura,35.1333,140.3,77.11,63,81,10.87,JP,1632189815
yemtsa,63.0734,40.3329,28.92,96,8,4.21,RU,1632190095
batagay,67.6333,134.6333,40.28,61,100,3.51,RU,1632190095
torbay,47.6666,-52.7314,45.88,70,6,18.34,CA,1632189799
port moresby,-7.0349,29.7638,75.81,44,46,4.72,CD,1632190013
hernani,43.2662,-1.9762,56.8,100,75,3.44,ES,1632190096
jilib,0.4883,42.7854,72.95,88,13,4.68,SO,1632190096
thinadhoo,0.5333,72.9333,82.76,75,12,10.47,MV,1632190097
rafai,4.95,23.9167,68.41,98,97,0.96,CF,1632190097
alekseyevsk,57.8406,108.3492,46.06,90,100,12.03,RU,1632190098
teguldet,57.3064,88.1667,36.23,95,100,9.17,RU,1632190098
buzmeyin,38.0507,58.2056,62.33,42,0,4.61,TM,1632190099
austin,30.2672,-97.7431,90.59,45,1,10.36,US,1632189913
yerbogachen,61.2767,108.0108,48.42,87,100,9.57,RU,1632189903
mangrol,21.1167,70.1167,80.46,87,100,13.33,IN,1632190099
praia da vitoria,14.9215,-23.5087,79.34,94,20,13.8,CV,1632190100
belaya gora,49.029,25.7706,42.06,86,100,14.38,UA,1632190100
orlovskiy,46.8714,42.0592,61.95,60,83,5.23,RU,1632190101
abilene,32.4487,-99.7331,95.49,23,1,10.36,US,1632189854
maragogi,-9.0122,-35.2225,73.49,77,15,5.35,BR,1632190101
pyatnitskoye,50.4233,37.8273,51.85,83,100,4.97,RU,1632190102
acapulco,16.8634,-99.8901,84.02,79,40,9.22,MX,1632190102
san cristobal,13.3034,-4.8956,83.75,56,83,5.17,ML,1632190103
alekseyevskaya,50.2896,42.1845,52.34,87,84,4.99,RU,1632190103
eydhafushi,5.1033,73.0708,81.88,74,87,9.66,MV,1632190104
pilar,-9.5972,-35.9567,71.53,89,58,1.83,BR,1632189826
tuatapere,-46.1333,167.6833,48.25,89,100,5.03,NZ,1632189811
bulgan,48.8125,103.5347,58.75,47,12,4.7,MN,1632190104
sinop,41.7711,34.8709,65.07,63,11,9.95,TR,1632190105
broome,42.2506,-75.833,64.98,77,1,8.05,US,1632190012
heihe,50.2441,127.4902,54.18,57,100,5.86,CN,1632190106
ilulissat,69.2167,-51.1,28.42,74,75,21.85,GL,1632189822
pisco,-13.7,-76.2167,59.5,83,3,1.3,PE,1632190107
nador,35.174,-2.9287,70.05,88,20,2.3,MA,1632190107
clyde river,41.3042,-82.9752,73.72,93,78,8.88,US,1632190108
beringovskiy,63.05,179.3167,41.86,95,100,7.96,RU,1632190108
bathurst,-33.4166,149.5806,42.49,67,78,14.88,AU,1632190109
prince rupert,52.9669,-108.3847,54.05,51,99,5.88,CA,1632190109
araouane,18.9048,-3.5265,94.37,13,0,5.86,ML,1632190110
novoagansk,61.9449,76.6625,34.47,97,100,10.49,RU,1632190110
chase,50.8165,-119.6857,54.61,67,87,3.11,CA,1632190110
guerrero negro,17.6667,-100.0,68.07,96,97,1.79,MX,1632190111
porbandar,21.6422,69.6093,82.38,89,75,13.8,IN,1632190111
zaraza,9.3503,-65.3245,76.42,87,94,3.94,VE,1632190112
cap malheureux,49.2718,-1.2104,62.22,87,100,4.9,FR,1632190112
tautira,-17.7333,-149.15,82.42,72,12,12.77,PF,1632190112
glace bay,37.6771,-80.3434,67.23,89,100,4.54,US,1632190113
deputatskiy,69.3,139.9,28.15,63,97,4.61,RU,1632190114
flinders,-34.5833,150.8552,58.28,49,30,22.32,AU,1632190114
armacao dos buzios,-27.7496,-48.5071,69.85,94,90,4.61,BR,1632190114
ano mera,15.9496,120.3891,85.98,70,16,8.9,PH,1632190115
dobroye,52.8678,39.8109,45.97,92,100,7.11,RU,1632190115
portland,45.5234,-122.6762,69.78,51,20,6.91,US,1632190053
guanare,9.0418,-69.7421,73.58,95,100,3.33,VE,1632190116
akdepe,42.0551,59.3788,51.89,22,0,10.13,TM,1632190117
bathsheba,13.2167,-59.5167,83.01,74,20,9.22,BB,1632190117
spiridonovka,53.0925,50.6462,45.61,48,100,11.43,RU,1632190117
helong,42.5397,128.9972,61.7,96,100,2.55,CN,1632190118
vila velha,42.0304,-8.1588,50.88,93,1,5.19,PT,1632190118
havre-saint-pierre,50.2334,-63.5986,50.07,83,67,6.55,CA,1632190119
peabiru,-23.9128,-52.3431,78.33,29,0,2.37,BR,1632190119
biloela,-24.4167,150.5,73.89,24,1,24.74,AU,1632190120
poronaysk,49.2167,143.1167,62.62,55,98,5.1,RU,1632190120
sieradz,51.5958,18.7302,37.85,67,60,6.38,PL,1632190120
valea ursului,45.1087,25.2617,48.2,82,73,5.06,RO,1632190121
chumphon,10.3333,98.8333,72.54,94,100,4.07,TH,1632190121
abashiri,44.0213,144.2697,68.4,60,79,5.41,JP,1632190122
indian head,60.9872,-149.5136,50.18,80,100,10.33,US,1632190122
shirokiy,49.758,129.523,57.67,57,100,8.57,RU,1632190123
fehergyarmat,47.9833,22.5167,41.11,81,7,8.14,HU,1632190123
kirovskiy,45.0917,133.5136,54.88,95,100,7.45,RU,1632190124
evensk,61.95,159.2333,45.88,85,100,18.23,RU,1632190124
cabungan,16.3365,119.9991,83.95,74,6,10.69,PH,1632190125
amapa,1.0,-52.0,71.98,97,98,2.64,BR,1632190125
havoysund,70.9963,24.6622,43.68,65,4,19.28,NO,1632190126
raga,8.4596,25.678,68.74,96,99,3.44,SS,1632190126
pimentel,-6.8367,-79.9342,62.69,86,31,14.65,PE,1632190126
pontianak,-0.0333,109.3333,80.58,83,20,5.75,ID,1632190127
hirara,24.8,125.2833,83.68,75,15,7.31,JP,1632189980
boden,65.8252,21.6886,44.6,79,100,3.33,SE,1632190128
lata,40.1629,-8.3327,59.09,62,0,11.1,PT,1632189848
muncar,-8.4333,114.3333,80.46,76,100,4.23,ID,1632190128
bontang,0.1333,117.5,78.13,85,100,4.25,ID,1632190129
takoradi,4.8845,-1.7554,75.4,94,45,7.52,GH,1632190129
saint-georges,12.0564,-61.7485,82.08,83,40,6.91,GD,1632190130
meulaboh,4.1363,96.1285,79.54,78,99,2.48,ID,1632190038
sindor,62.8629,51.8905,29.95,94,25,2.89,RU,1632190130
tilichiki,60.4667,166.1,46.36,85,100,10.89,RU,1632190131
lyuban,52.7985,28.0048,38.95,97,100,11.36,BY,1632190131
bagotville,-28.9833,153.4167,73.42,52,41,6.76,AU,1632190132
okhotsk,59.3833,143.3,49.6,57,100,7.83,RU,1632189835
rocha,-34.4833,-54.3333,52.14,88,80,17.74,UY,1632190132
jumla,29.2747,82.1838,62.94,85,88,1.23,NP,1632190133
luderitz,-26.6481,15.1594,57.96,57,0,13.18,NA,1632190133
knyaginino,55.8228,45.0349,41.86,60,100,12.62,RU,1632190133
quesnel,52.9999,-122.5029,50.5,87,90,8.05,CA,1632190134
sedona,34.8697,-111.761,80.35,18,1,3.44,US,1632189837
lincoln,40.8,-96.667,63.84,59,1,11.5,US,1632189940
petrozavodsk,61.7849,34.3469,39.97,80,100,8.39,RU,1632190135
rossosh,51.1209,38.5116,50.9,84,100,5.5,RU,1632190135
boda,4.3189,17.4695,69.66,95,100,1.59,CF,1632190135
aitape,-3.1374,142.3475,84.06,73,100,4.45,PG,1632190136
tortoli,39.9256,9.6572,68.41,60,0,2.75,IT,1632190136
merrill,45.1805,-89.6835,71.37,94,90,9.22,US,1632190035
bilibino,68.0546,166.4372,26.19,67,99,4.88,RU,1632190137
pafos,34.7667,32.4167,73.31,46,0,4.61,CY,1632190137
vavozh,56.7751,51.931,32.56,90,100,6.42,RU,1632190138
puerto escondido,36.5939,-6.233,69.94,88,0,4.61,ES,1632190138
fort nelson,52.6517,6.3861,50.0,71,86,1.41,NL,1632190138
dombarovskiy,50.7587,59.5386,39.36,58,95,10.85,RU,1632190139
kisoro,-1.2854,29.685,56.28,81,11,2.06,UG,1632190140
mackay,-21.15,149.2,80.22,43,98,0.76,AU,1632190140
alenquer,-1.9417,-54.7383,77.34,71,58,2.62,BR,1632190140
miles city,35.1855,-120.7032,86.77,40,1,3.44,US,1632190141
tarakan,3.3,117.6333,77.65,84,100,5.26,ID,1632190141
kaka,37.3482,59.6143,65.41,30,0,2.62,TM,1632190142
inhambane,-23.865,35.3833,66.87,81,11,9.06,MZ,1632190142
davila,18.4726,120.5763,84.52,73,54,3.18,PH,1632190142
haines junction,59.2286,-135.4441,47.95,93,90,6.91,US,1632190143
rapar,23.5667,70.6333,81.88,79,55,13.6,IN,1632190143
namtsy,62.7161,129.6658,42.91,57,9,3.27,RU,1632189877
hilton head island,43.2881,-77.7933,72.59,70,100,15.86,US,1632190144
kasongo-lunda,-6.4667,16.8167,77.65,56,73,3.09,CD,1632190144
kambove,-10.8764,26.5969,60.31,28,0,5.19,CD,1632190145
troitsko-pechorsk,62.7084,56.1964,33.31,86,100,5.7,RU,1632190145
nampula,-15.1165,39.2666,61.07,79,4,1.83,MZ,1632190146
hayden,47.766,-116.7866,61.03,54,1,3.44,US,1632190146
muros,42.7762,-9.0603,59.5,77,2,11.52,ES,1632189930
gravdal,68.1214,13.5031,47.48,64,100,22.84,NO,1632190147
senanga,-16.1167,23.2667,66.45,26,0,5.08,ZM,1632190147
jan kempdorp,34.9333,36.2167,68.59,49,0,2.37,SY,1632190147
ulverstone,-41.15,146.1667,52.92,53,100,12.19,AU,1632190148
sol-iletsk,51.1631,54.9918,49.66,36,100,7.9,RU,1632190148
arrecife,28.963,-13.5477,71.67,73,0,8.05,ES,1632190141
zyryanka,65.75,150.85,32.41,77,92,14.41,RU,1632190149
lerwick,60.1545,-1.1494,55.4,79,100,22.01,GB,1632190149
piste,20.7,-88.5833,79.83,78,40,3.71,MX,1632190150
vilhena,-12.7406,-60.1458,76.71,36,14,3.76,BR,1632190150
sabya,17.1495,42.6254,86.13,78,15,4.47,SA,1632190151
lucea,18.451,-78.1736,80.47,79,5,6.33,JM,1632190099
ardakan,32.31,54.0175,76.55,15,46,6.87,IR,1632190151
salinas,36.6777,-121.6555,85.01,44,1,6.91,US,1632190152
aksu,41.1231,80.2644,73.08,25,0,1.68,CN,1632190152
ejby,55.4858,12.0817,47.91,93,20,1.14,DK,1632190153
kasempa,-13.4584,25.8338,61.72,34,9,5.7,ZM,1632190153
ambulu,-8.345,113.6058,82.99,65,80,2.84,ID,1632190153
barguzin,53.6167,109.6167,54.57,89,96,4.9,RU,1632190154
mahajanga,-15.7167,46.3167,68.02,73,20,8.05,MG,1632190154
kawalu,-7.3817,108.2082,79.79,68,53,3.24,ID,1632190155
luganville,-15.5333,167.1667,79.02,71,61,10.11,VU,1632190155
margate,51.3813,1.3862,51.66,86,69,5.23,GB,1632190155
alyangula,-13.8483,136.4192,85.87,35,25,17.27,AU,1632190156
parana,-31.732,-60.5238,59.34,73,79,12.91,AR,1632190156
nanakuli,21.3906,-158.1547,85.95,51,1,9.22,US,1632190157
san quintin,13.3034,-4.8956,83.75,56,83,5.17,ML,1632190157
nyakabindi,-2.6333,33.9833,69.62,68,0,1.05,TZ,1632190157
kununurra,-15.7667,128.7333,94.98,21,21,20.71,AU,1632190146
mananjary,-21.2167,48.3333,65.14,89,23,4.14,MG,1632190158
trairi,-3.2778,-39.2689,78.28,78,37,11.54,BR,1632190039
harper,4.375,-7.7169,75.76,90,16,6.91,LR,1632190159
paka,4.6374,103.4368,82.99,73,92,6.73,MY,1632190159
cabudare,10.0289,-69.0894,73.36,94,36,0.96,VE,1632190159
mwinilunga,-11.7358,24.4293,59.83,27,6,3.22,ZM,1632190160
fereydun kenar,34.3667,46.9167,61.36,33,0,2.08,IR,1632190161
kavaratti,10.5669,72.642,81.36,79,100,10.02,IN,1632190161
nicoya,10.1483,-85.452,76.55,90,92,1.61,CR,1632190161
xinyang,32.1228,114.0656,80.58,65,0,12.95,CN,1632189871
jabinyanah,35.035,10.9081,78.71,66,100,4.81,TN,1632189931
darhan,49.4867,105.9228,53.1,79,99,12.21,MN,1632190162
erzin,36.9559,36.2,70.52,76,0,2.93,TR,1632190163
eureka,40.8021,-124.1637,65.01,77,1,1.92,US,1632189930
belgrade,44.804,20.4651,51.46,93,0,3.44,RS,1632190118
palmerston,-12.486,130.9833,91.38,33,0,6.91,AU,1632190163
isangel,-19.55,169.2667,77.11,56,3,11.74,VU,1632190128
lyaskelya,61.7667,31.0167,35.49,87,100,6.96,RU,1632190164
gombong,-7.6072,109.5142,81.95,67,99,2.8,ID,1632190164
krasnyy yar,54.5678,31.4333,41.58,97,100,10.36,RU,1632190165
oxbow,49.2333,-102.1676,51.04,48,89,5.23,CA,1632190165
ketchikan,55.3422,-131.6461,50.61,98,100,8.52,US,1632190165
kristinehamn,59.3098,14.1081,46.38,79,100,6.44,SE,1632190166
san-pedro,4.7485,-6.6363,75.07,94,42,5.1,CI,1632190166
bandarbeyla,9.4942,50.8122,76.24,82,8,23.26,SO,1632190021
suez,29.9737,32.5263,73.83,80,0,10.83,EG,1632190167
nilanga,18.1,76.7667,72.36,93,100,5.91,IN,1632190167
grand-santi,4.25,-54.3833,74.19,88,100,2.59,GF,1632190168
manjacaze,-24.7117,33.8828,61.12,83,16,2.33,MZ,1632190168
kovdor,67.5662,30.4758,29.61,96,8,5.03,RU,1632190169
leningradskiy,69.3833,178.4167,26.76,83,89,11.61,RU,1632189934
turochak,52.2576,87.1224,37.78,95,100,5.3,RU,1632190169
zaozerne,45.1582,33.2787,57.97,80,100,9.66,UA,1632190170
moron,-34.6534,-58.6198,55.15,66,0,11.01,AR,1632190134
annan,54.9884,-3.2565,50.52,96,100,6.58,GB,1632190170
mogadishu,2.0371,45.3438,76.71,80,37,13.02,SO,1632189919
rawson,-43.3002,-65.1023,56.61,37,0,5.73,AR,1632190171
voh,-20.9667,164.7,79.99,45,33,5.95,NC,1632190171
kupang,-10.1667,123.5833,86.58,51,20,16.11,ID,1632190172
kimamba,-6.7833,37.1333,67.73,86,40,3.58,TZ,1632190172
axim,4.8699,-2.2405,75.69,93,40,7.31,GH,1632190173
srednekolymsk,67.45,153.6833,37.58,47,22,14.34,RU,1632190173
shakawe,-18.3667,21.85,69.64,23,5,4.63,BW,1632190038
pemba,-12.974,40.5178,72.3,88,75,4.61,MZ,1632190174
ornskoldsvik,63.2909,18.7153,40.15,93,90,2.3,SE,1632190174
novobirilyussy,56.9514,90.6661,36.25,95,100,8.95,RU,1632189967
north platte,50.3333,3.6667,50.99,81,2,6.55,FR,1632190175
san matias,13.3034,-4.8956,83.75,56,83,5.17,ML,1632190090
glyadyanskoye,54.9075,65.0883,37.87,88,100,3.51,RU,1632190176
lambarene,-0.7001,10.2406,72.79,94,99,3.62,GA,1632190176
saint-gaudens,43.0833,0.6667,51.53,92,62,2.8,FR,1632190177
marigot,18.0667,-63.0833,82.18,89,20,1.14,MF,1632190177
jiwani,25.05,61.7417,81.07,85,31,8.97,PK,1632190177
aldan,58.6031,125.3894,47.64,68,1,3.71,RU,1632190178
bambanglipuro,-7.95,110.2833,81.21,71,100,6.73,ID,1632189997
kamaishi,39.2667,141.8833,72.81,67,0,13.35,JP,1632190178
mount isa,53.6597,-1.8537,51.51,95,17,5.19,GB,1632190179
robertsport,6.7533,-11.3686,78.69,85,100,7.74,LR,1632190179
traralgon,-38.1833,146.5333,51.44,63,67,8.3,AU,1632190180
namatanai,-3.6667,152.4333,84.63,68,100,4.41,PG,1632190181
vranjska banja,44.8442,16.1284,46.11,94,100,1.86,BA,1632190181
nalut,30.3333,10.85,81.45,17,0,7.92,LY,1632190182
sao sebastiao,20.5113,76.2129,72.52,91,100,5.46,IN,1632190006
yushala,57.0761,64.2601,37.15,97,26,4.16,RU,1632190182
pontes e lacerda,-4.8333,-43.3667,84.24,67,95,6.44,BR,1632190183
samarai,-10.6167,150.6667,77.83,88,100,11.72,PG,1632190183
dongkan,33.9997,119.8308,77.5,72,0,15.5,CN,1632190184
malm,64.0721,11.2172,48.04,85,100,2.84,NO,1632190184
chilca,-12.5211,-76.7372,59.16,86,88,7.61,PE,1632190184
yar-sale,66.8333,70.8333,37.98,98,100,12.1,RU,1632190185
bata,1.8639,9.7658,75.87,90,45,7.43,GQ,1632190185
vostok,46.4856,135.8833,48.96,97,100,2.93,RU,1632190016
sumenep,-7.0167,113.8667,84.99,62,90,11.36,ID,1632190186
condado,21.8767,-79.8403,79.65,91,66,6.82,CU,1632190187
lexington,37.9887,-84.4777,69.8,94,40,8.05,US,1632190112
kashi,39.4547,75.9797,71.85,17,0,5.7,CN,1632190187
bubaque,11.2833,-15.8333,81.01,83,98,11.05,GW,1632190118
dalbandin,28.8947,64.4101,76.57,16,0,2.3,PK,1632190188
tupik,54.4253,119.9327,58.17,75,23,3.24,RU,1632190188
vadlapudi,14.3167,79.8,86.88,51,97,6.11,IN,1632190089
kirakira,-10.4544,161.9205,83.61,73,19,12.15,SB,1632190189
kabare,-2.4683,28.8242,62.2,78,4,0.83,CD,1632190189
ylivieska,64.0833,24.55,31.86,97,52,4.72,FI,1632190190
ust-nera,64.5667,143.2,37.44,59,11,4.83,RU,1632190190
mangai,-4.05,19.5333,70.45,79,9,1.19,CD,1632190191
hovd,48.0056,91.6419,51.15,18,2,5.99,MN,1632190191
umea,63.8284,20.2597,40.93,93,90,0.0,SE,1632190191
genhe,50.7833,121.5167,58.89,52,100,2.75,CN,1632190192
chake chake,23.86,103.046,66.79,85,67,2.04,CN,1632190192
launceston,-41.45,147.1667,53.24,43,40,5.75,AU,1632189931
mackenzie,55.2999,-123.1698,44.94,96,100,9.31,CA,1632190193
oyotun,-6.8519,-79.3036,71.37,70,26,4.12,PE,1632190193
jackson,42.4165,-122.8345,78.67,24,1,0.0,US,1632190142
tynda,55.1667,124.7167,56.07,73,8,2.35,RU,1632190194
kolpashevo,58.3131,82.9089,34.23,97,100,13.4,RU,1632190194
lompoc,34.6391,-120.4579,75.34,66,1,5.75,US,1632190015
lesosibirsk,58.2358,92.4828,37.92,92,100,8.95,RU,1632190195
kaihua,23.3687,104.28,70.02,80,29,3.78,CN,1632190195
vryburg,-26.9566,24.7284,48.47,34,0,8.41,ZA,1632190196
jinchang,38.4953,102.1739,71.47,20,0,5.5,CN,1632190196
basar,27.9833,94.6667,78.26,75,13,1.1,IN,1632190197
tarko-sale,64.9225,77.785,33.48,86,100,13.53,RU,1632190197
suntar,62.1444,117.6319,46.92,49,94,11.07,RU,1632190197
oranjemund,-28.55,16.4333,54.7,71,2,11.74,NA,1632190198
buraydah,26.326,43.975,76.64,19,0,3.74,SA,1632190134
itarema,-2.9248,-39.9167,78.44,81,56,14.92,BR,1632190198
barrancabermeja,7.0653,-73.8547,74.88,97,100,1.12,CO,1632190199
ayan,56.45,138.1667,50.36,45,1,13.51,RU,1632190199
acarau,-2.8856,-40.12,78.46,82,63,15.57,BR,1632190200
kirkuk,35.4681,44.3922,79.45,24,0,4.29,IQ,1632190200
garmsar,35.2182,52.3409,77.99,21,0,3.96,IR,1632190200
hohhot,40.8106,111.6522,65.39,41,5,3.56,CN,1632190201
namibe,-15.1961,12.1522,60.69,86,9,0.92,AO,1632190204
beloha,-25.1667,45.05,62.11,73,0,7.0,MG,1632190205
lagoa,39.05,-27.9833,69.28,73,0,8.84,PT,1632190205
maria aurora,37.7102,-2.1645,57.65,88,16,5.19,ES,1632189943
sao jose da coroa grande,20.5113,76.2129,72.52,91,100,5.46,IN,1632190197
denpasar,-8.65,115.2167,82.06,89,40,9.22,ID,1632189977
santa maria,17.486,120.4348,85.48,71,10,3.98,PH,1632190207
prenzlau,53.3167,13.8667,51.76,80,99,1.57,DE,1632190207
sarankhola,22.3082,89.7897,78.46,89,100,7.14,BD,1632190208
ewa beach,-8.6235,122.5073,80.29,57,20,4.41,ID,1632190208
tshikapa,-6.4167,20.8,74.37,50,100,2.48,CD,1632190209
atherton,53.5237,-2.4935,58.55,92,98,2.82,GB,1632190209
serpa,37.9458,-7.5975,66.07,42,0,11.39,PT,1632190210
